[
    {
        "name": "TEST LUNCH PERIOD",
        "category": "Test",
        "city": "Twentynine Palms",
        "state": "Test",
        "id": 1000,
        "time": 1045,
        "isFeatured": true,
        "isFavorite": true,
        "park": "Slot 0-1",
        "coordinates": {
            "longitude": -116.166868,
            "latitude": 34.011286
        },
        "description": "DELETE THIS LATER",
        "imageName": "turtlerock"
    },
    {
        "name": "A Lunch",
        "category": "Lake Forest High School",
        "city": "Twentynine Palms",
        "state": "Lake Forest High School",
        "id": 1001,
        "time": 1045,
        "isFeatured": true,
        "isFavorite": true,
        "park": "Slot 7-8",
        "coordinates": {
            "longitude": -116.166868,
            "latitude": 34.011286
        },
        "description": "DELETE THIS LATER",
        "imageName": "lfhsImage"
    },
    {
        "name": "B Lunch",
        "category": "Lake Forest High School",
        "city": "Port Alsworth",
        "state": "lfhs",
        "id": 1002,
        "time": 1115,
        "isFeatured": false,
        "isFavorite": false,
        "park": "Slot 9-10",
        "coordinates": {
            "longitude": -152.665167,
            "latitude": 59.980167
        },
        "description": "DELETE THIS LATER",
        "imageName": "lfhsImage"
    },
    {
        "name": "C Lunch",
        "category": "Lake Forest High School",
        "city": "Skagway",
        "state": "Lake Forest High School",
        "id": 1003,
        "time": 1145,
        "isFeatured": false,
        "isFavorite": true,
        "park": "Slot 11-12",
        "coordinates": {
            "longitude": -135.334571,
            "latitude": 59.560551
        },
        "description": "DELETE THIS LATER",
        "imageName": "lfhsImage"
    },
    {
        "name": "1st DPM Lunch",
        "category": "Deerpath Middle School",
        "city": "Skagway",
        "state": "Deerpath Middle School",
        "id": 1004,
        "time": 1145,
        "isFeatured": false,
        "isFavorite": true,
        "park": "Slot 11-12",
        "coordinates": {
            "longitude": -135.334571,
            "latitude": 59.560551
        },
        "description": "DELETE THIS LATER",
        "imageName": "dpmImage"
    },
    {
        "name": "LB 1P Lunch",
        "category": "Lake Bluff Elementary School",
        "city": "Skagway",
        "state": "Lake Bluff Elementary School",
        "id": 1005,
        "time": 1145,
        "isFeatured": false,
        "isFavorite": true,
        "park": "Slot 11-12",
        "coordinates": {
            "longitude": -135.334571,
            "latitude": 59.560551
        },
        "description": "DELETE THIS LATER",
        "imageName": "lbesImage"
    }
]
